City_ID,City,Country,Max Temp,Current Description,Lat,Lng,Hotel Name
0,Boa Vista,BR,78.78,few clouds,2.8197,-60.6733,Aipana Plaza Hotel
1,Hermanus,ZA,52.9,clear sky,-34.4187,19.2345,Misty Waves Boutique Hotel
2,Vao,NC,73.45,overcast clouds,-22.6667,167.4833,Hotel Kou-Bugny
3,Kirakira,SB,83.05,overcast clouds,-10.4544,161.9205,SanBiz Lodge
4,Oktyabrskoye,RU,57.34,broken clouds,43.0645,44.7417,Prolesok Mini-hotel
6,Hobart,AU,58.05,moderate rain,-42.8794,147.3294,Mantra on Collins Hobart
7,Wenling,CN,80.91,light rain,28.3669,121.36,Hanting Express Wenling Wanchang North Road
8,Ribeira Grande,PT,63.72,overcast clouds,38.5167,-28.7,Quinta da Meia Eira
9,Deming,US,80.49,clear sky,32.2687,-107.7586,Best Western Deming Southwest Inn
10,Chuy,UY,62.91,light rain,-33.6971,-53.4616,Nuevo Hotel Plaza
12,Yellowknife,CA,55.92,broken clouds,62.456,-114.3525,The Explorer Hotel
14,Rikitea,PF,74.73,scattered clouds,-23.1203,-134.9692,Pension Maro'i
15,Hambantota,LK,80.94,broken clouds,6.1241,81.1185,Bungalow 63
16,Ugoofaaru,MV,83.08,overcast clouds,5.6667,73.0,Ungoofaaru Inn
17,Te Anau,NZ,52.54,overcast clouds,-45.4167,167.7167,Kingsgate Hotel Te Anau
18,Arraial Do Cabo,BR,72.55,clear sky,-22.9661,-42.0278,Pousada Porto Praia
20,Grand-Lahou,CI,78.87,overcast clouds,5.1367,-5.0242,Hotel Beatitude de Grand Lahou
21,Znamenka,RU,55.54,light rain,52.4167,41.4311,Gostinitsa Yeseninskaya
22,San Cristobal,VE,66.76,overcast clouds,7.7669,-72.225,Posada Villaven C.A.
24,Atuona,PF,79.41,scattered clouds,-9.8,-139.0333,Villa Enata
25,Oktyabrskiy,RU,58.51,light rain,54.4815,53.471000000000004,Уязы-Тау гостиница
27,Bambous Virieux,MU,74.21,light rain,-20.3428,57.7575,Casa Tia Villa
28,Faanui,PF,80.96,moderate rain,-16.4833,-151.75,Bora-Bora Pearl Beach Resort & Spa
32,Cherskiy,RU,71.51,overcast clouds,68.75,161.3,Gostinitsa
33,Port Alfred,ZA,54.77,clear sky,-33.5906,26.891,The Halyards Hotel
34,Meulaboh,ID,78.49,overcast clouds,4.1363,96.1285,Kost Pria
35,Bay City,US,79.36,clear sky,43.5945,-83.8889,DoubleTree by Hilton Hotel Bay City - Riverfront
42,Victoria,HK,83.32,overcast clouds,22.2855,114.1577,Mini Hotel Central
45,Norman Wells,CA,59.04,broken clouds,65.282,-126.8329,Heritage Hotel
46,Hithadhoo,MV,82.53,moderate rain,-0.6,73.0833,Scoop Guest House
48,Castro,BR,55.94,clear sky,-24.7911,-50.0119,CHACARA BAILLY
49,Maloy,NO,57.06,overcast clouds,61.9353,5.1136,Torget Hotell
50,Batemans Bay,AU,61.92,clear sky,-35.7167,150.1833,Batemans Bay Marina Resort
51,Santa Cruz,BO,71.06,overcast clouds,-17.8,-63.1667,Aviador Hotel Boutique
55,Avarua,CK,78.85,light intensity drizzle,-21.2078,-159.775,Paradise Inn
56,Alta Gracia,AR,63.88,overcast clouds,-31.6529,-64.4283,Hotel Ritz
57,Coahuayana,MX,79.52,overcast clouds,18.7333,-103.6833,El rranchito michuacan de ocampos
59,Blind River,CA,61.05,few clouds,46.1834,-82.9582,Auberge Eldo Inn
61,Tefe,BR,75.16,light rain,-3.3542,-64.7114,Aracati Hotel
63,Almeirim,BR,73.06,few clouds,-1.5233,-52.5817,Ricácio Hotel
67,Mahebourg,MU,74.25,light rain,-20.4081,57.7,Shandrani Beachcomber Resort & Spa
68,Kapaa,US,82.38,light rain,22.0752,-159.319,Sheraton Kauai Coconut Beach Resort
69,Kamenka,RU,52.54,overcast clouds,51.3223,42.7678,
70,Coquimbo,CL,56.93,overcast clouds,-29.9533,-71.3436,Punto de encuentro
71,Milkovo,RU,53.49,light rain,54.7167,158.6167,"Hotel ""Geologist"""
73,Bredasdorp,ZA,52.29,clear sky,-34.5322,20.0403,Bredasdorp Country Manor
74,Inirida,CO,74.05,light rain,3.8653,-67.9239,Fuente del Guania Hotel de Lujo
75,Cape Town,ZA,53.11,clear sky,-33.9258,18.4232,Southern Sun Waterfront Cape Town
79,Ambilobe,MG,70.43,clear sky,-13.2,49.05,Hôtel & Restaurant DIANA Ambilobe
80,Timra,SE,51.67,few clouds,62.486999999999995,17.3257,Bergefors park
81,Chokurdakh,RU,78.94,overcast clouds,70.6333,147.9167,
82,Kahului,US,82.42,few clouds,20.8947,-156.47,Maui Seaside Hotel
85,Springdale,US,71.08,clear sky,36.1867,-94.1288,Springdale Inn
86,La Ronge,CA,70.02,broken clouds,55.1001,-105.2842,Northland Motor Hotel
88,Aksarka,RU,53.11,overcast clouds,66.5606,67.7975,
90,Porto Velho,BR,75.25,clear sky,-8.7619,-63.9039,Hotel Central
91,Port-Gentil,GA,78.91,broken clouds,-0.7193,8.7815,Fengshui Residence
92,Kavieng,PG,84.38,broken clouds,-2.5744,150.7967,Nusa Island Retreat
93,Faya,SA,64.51,clear sky,18.3851,42.4509,مقبرة ال مجمل
94,Balsas,BR,76.6,broken clouds,-7.5325,-46.0356,Novo Hotel
95,Houma,US,78.8,clear sky,29.5958,-90.7195,Courtyard by Marriott Houma
96,Mar Del Plata,AR,55.87,mist,-38.0023,-57.5575,Gran Hotel Mar del Plata
97,Lewisporte,CA,60.55,broken clouds,49.2499,-55.0482,Ocean View Bed & Breakfast
98,Aleksandrov Gay,RU,62.78,overcast clouds,50.147,48.5704,Gostinitsa I.p. Yes'kov A.v
99,Saint-Philippe,RE,71.47,scattered clouds,-21.3585,55.7679,"Chambres d'hôte ""La Trinité"""
100,Sept-Iles,CA,58.05,few clouds,50.2001,-66.3821,Comfort Inn
101,Xinyu,CN,83.05,clear sky,27.8043,114.9334,Xinyu Beihu Hotel
102,Cockburn Town,TC,79.74,clear sky,21.4612,-71.1419,Osprey Beach Hotel
103,Kamloops,CA,70.83,broken clouds,50.6665,-120.3192,Ramada by Wyndham Kamloops
104,Isangel,VU,84.31,few clouds,-19.55,169.2667,Tanna Lodge
105,Herat,AF,82.99,clear sky,34.5,62.0,
106,Xuddur,SO,71.17,clear sky,4.1213,43.8894,Banjanay Hotel
107,Ilam,NP,80.06,clear sky,26.9167,87.9167,चियाबारी कटेज
109,Maragogi,BR,74.14,clear sky,-9.0122,-35.2225,Salinas do Maragogi All Inclusive Resort
111,Fukue,JP,70.16,moderate rain,32.6881,128.8419,Goto Guesthouse Utojuku & SA Car Rental
112,Skibbereen,IE,55.2,overcast clouds,51.55,-9.2667,The West Cork Hotel
113,Nanchang,CN,80.47,broken clouds,28.6833,115.8833,Gloria Plaza Hotel Nanchang
114,Bara,NG,77.22,overcast clouds,10.3744,10.7288,
115,Busselton,AU,66.04,overcast clouds,-33.65,115.3333,Observatory Guest House
116,Hit,IQ,84.85,clear sky,33.6416,42.8251,صالون زيرو
117,Albany,US,66.45,clear sky,42.6001,-73.9662,
119,Esperance,AU,64.24,scattered clouds,-33.8667,121.9,Hospitality Esperance
120,Jalu,LY,72.28,clear sky,29.0331,21.5482,صاحبة الفخامة
121,New Norfolk,AU,57.7,moderate rain,-42.7826,147.0587,The Shingles Riverside Cottages
124,Vangaindrano,MG,66.0,few clouds,-23.35,47.6,Hotel Fanilo
125,Ypsilanti,US,78.73,clear sky,42.2412,-83.613,Ann Arbor Marriott Ypsilanti at Eagle Crest
126,Camopi,GF,71.49,broken clouds,3.1655,-52.3158,
127,Erlangen,DE,60.58,clear sky,49.5897,11.0039,Creativhotel Luise
128,Athabasca,CA,58.82,overcast clouds,54.7169,-113.2854,Athabasca Lodge Motel
130,Midland,US,73.69,clear sky,31.9974,-102.0779,DoubleTree by Hilton Hotel Midland Plaza
133,Nikolskoye,RU,55.29,few clouds,59.7035,30.7861,Tourist House - Sablino
134,Koumac,NC,77.05,broken clouds,-20.5667,164.2833,Le Monitel
135,Jamestown,US,71.19,broken clouds,42.097,-79.2353,Hampton Inn & Suites Jamestown
136,Codrington,AU,57.94,light rain,-38.2667,141.9667,Codrington Gardens Bed And Breakfast
137,San Patricio,US,78.89,clear sky,28.017,-97.5169,"Motel 6 Sinton, TX"
138,East London,ZA,50.94,clear sky,-33.0153,27.9116,Tu Casa
139,Libreville,GA,80.62,scattered clouds,0.3925,9.4537,Hotel Re-Ndama
140,Vaini,TO,73.56,scattered clouds,-21.2,-175.2,Keleti Beach Resort
141,Ziniare,BF,84.24,broken clouds,12.5822,-1.2983,Privilège Hôtel de Ziniaré
142,Tucuman,AR,60.8,clear sky,-26.8241,-65.2226,HOTEL MIAMI
144,Airai,TL,72.5,broken clouds,-8.9266,125.4092,Juvinal Martin
145,Eyl,SO,80.2,few clouds,7.9803,49.8164,Amiin Hotel
146,Vorsma,RU,61.47,clear sky,55.9856,43.2717,House by the river
147,Puerto Ayora,EC,72.55,overcast clouds,-0.7393,-90.3518,Finch Bay Galapagos Hotel
148,Soe,ID,80.83,broken clouds,-9.8607,124.28399999999999,Dena Hotel
149,Mount Gambier,AU,53.51,moderate rain,-37.8333,140.7667,Commodore on the Park
150,Mumford,GH,78.42,broken clouds,5.2618,-0.759,Spanish Villa
153,Cascais,PT,60.48,scattered clouds,38.6979,-9.4215,Hotel Vila Galé Cascais
154,Ileza,RU,66.92,scattered clouds,61.0533,43.9002,
155,Barcelos,PT,56.84,clear sky,41.5388,-8.6151,Hotel Do Terço
156,Kijang,KR,78.53,overcast clouds,35.2442,129.2139,Samyang Beach Villa
157,Hualmay,PE,63.05,clear sky,-11.0964,-77.6139,Hotel Villa Kitzia Huacho
158,Sinnamary,GF,77.16,overcast clouds,5.3833,-52.95,ALETHEIA Appartement Sinnamary
159,Luangwa,ZM,63.59,scattered clouds,-15.6167,30.4167,Gerasimos Safari Lodge
160,Caraz,PE,61.38,overcast clouds,-9.0486,-77.81,Hostal La Alameda
161,Harrisburg,US,71.74,clear sky,40.2737,-76.8844,Hilton Harrisburg
163,Touros,BR,72.5,clear sky,-5.1989,-35.4608,INN NEW HORIZON
164,Victoria Point,AU,73.18,clear sky,-27.5833,153.3,Bay Retreat Motel
165,Tarauaca,BR,72.93,overcast clouds,-8.1614,-70.7656,Flat Temporada
166,Verkhnyaya Inta,RU,55.76,overcast clouds,65.9811,60.3094,
167,Mananjary,MG,68.11,few clouds,-21.2167,48.3333,Vahiny Lodge
168,Guerrero Negro,MX,63.61,broken clouds,27.9769,-114.0611,"Casa Laguna, Bed & Breakfast"
169,Margate,GB,56.3,overcast clouds,51.3813,1.3862,Premier Inn Margate hotel
170,Usinsk,RU,55.18,overcast clouds,65.9939,57.5281,Dobro Pozhalovaty
171,Fairbanks,US,68.0,scattered clouds,64.8378,-147.7164,Westmark Fairbanks Hotel & Conference Center
172,Karratha,AU,77.58,clear sky,-20.7377,116.8463,ibis Styles Karratha
173,Bethel,US,66.81,mist,41.3712,-73.414,Courtyard by Marriott Danbury
174,Luderitz,NA,66.88,clear sky,-26.6481,15.1594,LÜDERITZ NEST HOTEL
175,Sibut,CF,69.4,light rain,5.718,19.0739,
179,Clive,US,78.01,clear sky,41.603,-93.7241,Valley West Inn
180,Hervey Bay,AU,70.02,clear sky,-25.2986,152.8535,Shelly Bay Resort
181,Deputatskiy,RU,77.18,overcast clouds,69.3,139.9,Baza Otdykha
184,Chute-Aux-Outardes,CA,66.51,scattered clouds,49.1168,-68.399,Camp St-Paul Gite Plein-Air
186,Tevriz,RU,60.58,clear sky,57.50899999999999,72.4042,Postoyalyy Dvor
187,Nemuro,JP,75.63,overcast clouds,43.3236,145.575,Hotel Nemuro Kaiyoutei
188,Butaritari,KI,83.12,overcast clouds,3.0707,172.7902,Isles Sunset Lodge
191,Hilo,US,78.53,few clouds,19.7297,-155.09,Hilo Hawaiian Hotel
192,Erzin,TR,68.72,clear sky,36.9559,36.2,Artemis Otel
193,Kendari,ID,80.67,overcast clouds,-3.945,122.4989,Hotel Wixel
194,Cleveland,US,75.96,scattered clouds,41.4995,-81.6954,Renaissance Cleveland Hotel
195,Vila Do Maio,CV,75.99,scattered clouds,15.1333,-23.2167,Hotel Marilu
196,Lagoa,PT,62.33,broken clouds,39.05,-27.9833,Casa Das Faias
197,Westport,US,67.98,clear sky,41.1415,-73.3579,The Westport Inn
200,Raton,US,66.54,clear sky,36.9034,-104.4391,"Holiday Inn Express & Suites Raton, an IHG Hotel"
201,Pundaguitan,PH,82.56,overcast clouds,6.3711,126.1689,Leonardo Family Beach House 1
202,Ponta Do Sol,PT,65.03,few clouds,32.6667,-17.1,Hotel do Campo
206,Mujiayingzi,CN,73.72,broken clouds,42.1167,118.7833,Jinjiang Hotel
207,Geraldton,AU,69.13,clear sky,-28.7667,114.6,Broadwater Mariner Resort
210,Kasongo-Lunda,CD,65.73,scattered clouds,-6.4667,16.8167,
211,Surany,SK,59.95,clear sky,48.0861,18.1845,Tyche
213,Nuevo Progreso,MX,78.6,broken clouds,23.1667,-97.95,Balneario Rio el Paraiso
214,Chapeco,BR,57.78,clear sky,-27.0964,-52.6183,Golden Hotel
216,Carnarvon,AU,73.47,few clouds,-24.8667,113.6333,Hospitality Carnarvon
217,Sobolevo,RU,56.43,scattered clouds,54.4299,31.8996,
218,Moron,AR,62.29,overcast clouds,-34.6534,-58.6198,Hotel Morón
219,Saint Peter,BB,79.36,overcast clouds,13.25,-59.6167,Legend Garden Condos
220,Mezen,RU,69.03,clear sky,65.8522,44.24,
221,Ahipara,NZ,59.97,moderate rain,-35.1667,173.1667,Ahipara Holiday Park
223,Kudahuvadhoo,MV,83.32,overcast clouds,2.6708,72.8944,Niyama Private Islands Maldives
224,Monterey,US,52.09,clear sky,36.2505,-121.2516,
225,Kenai,US,63.03,clear sky,60.5544,-151.2583,Aspen Extended Stay Suites
226,Southbridge,US,66.09,clear sky,42.0751,-72.0334,Southbridge Hotel & Conference Center
227,Jumla,NP,69.82,few clouds,29.2747,82.1838,"अन्नी घर, जुम्ला - Anni Ghar"
228,Banganapalle,IN,80.6,overcast clouds,15.3167,78.2333,Careerfinder4you
229,Vila Franca Do Campo,PT,63.01,overcast clouds,37.7167,-25.4333,Pestana Bahia Praia
230,Wajir,KE,73.33,broken clouds,1.7471,40.0573,Al-bustan Hotel And Restaurant.
231,Souillac,MU,74.35,broken clouds,-20.5167,57.5167,Shanti Maurice Resort & Spa
233,Haines Junction,CA,60.75,overcast clouds,60.7522,-137.5108,Parkside Inn
234,Mandalgovi,MN,74.84,broken clouds,45.7625,106.2708,В.Ганбат
235,Blairmore,CA,68.92,few clouds,49.6,-114.4353,Highwood Motel
237,Bani Walid,LY,61.86,overcast clouds,31.7566,13.9942,منزل الصابر أبوفانة
239,Mayumba,GA,75.25,broken clouds,-3.432,10.6554,LIKWALE LODGE
241,Yulara,AU,64.24,clear sky,-25.2406,130.9889,Desert Gardens Hotel - Ayers Rock Resort
242,Mae Hong Son,TH,80.74,broken clouds,19.3003,97.9685,Baiyoke Chalet Hotel
244,Natchez,US,73.62,moderate rain,31.5604,-91.4032,Hampton Inn & Suites Natchez
245,Fortuna,US,58.66,clear sky,40.5982,-124.1573,Super 8 by Wyndham Fortuna
246,Rorvik,NO,53.53,clear sky,64.8621,11.2373,Kysthotellet Rørvik AS
247,College,US,69.46,broken clouds,64.8569,-147.8028,Pike's Waterfront Lodge
248,Albury,AU,53.02,broken clouds,-36.0833,146.9167,Albury Georgian Motel & Suites
249,Luanda,AO,77.0,broken clouds,-8.8368,13.2343,LANDU MARINEZA LUFUANDU TONI
250,Komono,JP,81.25,moderate rain,35.0,136.5167,Aqua Ignis
251,Ilulissat,GL,50.02,scattered clouds,69.2167,-51.1,Hotel Arctic
253,Owando,CG,71.98,broken clouds,-0.4819,15.8999,Exaunel Hotel Owando
254,Vallenar,CL,56.71,overcast clouds,-28.5708,-70.7581,Humacao Bed & Breakfast
257,Klaksvik,FO,50.92,broken clouds,62.2266,-6.5889999999999995,Airbnb rooms
258,Stephenville Crossing,CA,51.93,fog,48.5,-58.4318,Henrieta's Hospitality Home
259,Samana,DO,76.66,few clouds,19.2056,-69.3369,The Bannister - Hotel & Yacht Club
260,Uray,RU,65.68,broken clouds,60.1247,64.7758,Hotel Pioner
261,Katsuura,JP,75.31,broken clouds,35.1333,140.3,Katsuura Hotel Mikazuki
262,Manokwari,ID,81.1,broken clouds,-0.8667,134.0833,Swiss Belhotel Manokwari
263,Margherita,IN,72.88,overcast clouds,27.2833,95.6833,Dehing Guest House
265,Auxerre,FR,58.86,overcast clouds,47.8,3.5667,Hôtel Les Maréchaux
266,Bengkulu,ID,76.24,overcast clouds,-3.8004,102.2655,Grage Hotel Bengkulu
267,Torbay,CA,54.75,overcast clouds,47.6666,-52.7314,Gallows Cove
268,Kuching,MY,82.62,scattered clouds,1.55,110.3333,The Ranee Boutique Suites
269,Bonfim,BR,78.39,broken clouds,3.0833,-59.95,
270,Iberia,US,75.97,clear sky,29.9502,-91.7507,back to back rv park
271,Den Helder,NL,60.98,light rain,52.9599,4.7593,Hotel Den Helder
272,Tabou,CI,78.31,overcast clouds,4.423,-7.3528,hotêl doufoulougou
273,Bloomfield,US,67.86,mist,40.8068,-74.1854,La Quinta Inn & Suites by Wyndham Clifton/Rutherford
274,Adre,TD,78.46,broken clouds,13.4667,22.2,
275,San Quintin,MX,64.44,clear sky,30.4833,-115.95,Don Eddie's Sport Fishing Center
277,Umm Kaddadah,SD,82.09,overcast clouds,13.6017,26.6876,
278,Kodiak,US,60.31,scattered clouds,57.79,-152.4072,Best Western Kodiak Inn And Convention Center
279,Cidreira,BR,65.08,broken clouds,-30.1811,-50.2056,Hotel Castelo
281,Ambunti,PG,78.71,overcast clouds,-4.2365,142.8448,Ambunti Lodge
282,Ilebo,CD,70.92,few clouds,-4.3167,20.5833,Hôtel BUMAK
283,Nouadhibou,MR,67.98,clear sky,20.930999999999997,-17.0347,El Medina
284,Popondetta,PG,77.2,light rain,-8.7537,148.2534,Timos Transit House
285,Port Lavaca,US,77.99,clear sky,28.615,-96.6261,Holiday Inn Express & Suites Port Lavaca
286,Salalah,OM,82.49,broken clouds,17.0151,54.0924,HAMDAN PLAZA HOTEL SALALAH
288,Nyimba,ZM,56.89,clear sky,-14.5566,30.8149,Dali Dali Lodge
289,Peniche,PT,59.74,scattered clouds,39.3558,-9.3811,Hotel Star inn Peniche
290,Gornopravdinsk,RU,65.07,scattered clouds,60.05,69.9,Burovik
291,Pechenga,RU,50.86,broken clouds,69.5259,31.1703,
292,Sao Francisco,BR,68.74,clear sky,-15.9486,-44.8644,Hotel Supremo
293,Rio Grande,BR,65.23,scattered clouds,-32.035,-52.0986,Hotel Atlântico Rio Grande
294,Constitucion,CL,51.89,scattered clouds,-35.3333,-72.4167,Hotel Boutique Las Azucenas
295,Tornio,FI,55.42,broken clouds,65.8481,24.1466,Park Hotel Tornio
298,Lokosovo,RU,61.23,broken clouds,61.1333,74.8167,
299,Udachnyy,RU,52.3,overcast clouds,66.4167,112.4,Severnoye Siyaniye
300,Poum,NC,74.91,few clouds,-20.2333,164.0167,Gîte kajeon
302,Constantine,DZ,65.61,broken clouds,36.365,6.6147,Grand Hotel Cirta
303,Tabuleiro Do Norte,BR,71.6,clear sky,-5.2467,-38.1306,Hotel Central I
305,Namibe,AO,70.56,clear sky,-15.1961,12.1522,Hotel Chik Chik Namibe
306,Taldan,RU,70.88,clear sky,53.6667,124.8,
307,Henties Bay,NA,72.86,clear sky,-22.116,14.2845,Fishermans Guest House
310,Halifax,CA,63.41,overcast clouds,44.6453,-63.5724,Hotel Halifax
312,Bafia,CM,70.23,light rain,4.75,11.2333,Ets MAISON BLANCHE
313,Bandarbeyla,SO,81.21,broken clouds,9.4942,50.8122,JABIR HOTEL
314,Tateyama,JP,75.22,broken clouds,34.9833,139.8667,Tateyama Seaside Hotel
315,San Giovanni Rotondo,IT,56.82,few clouds,41.7049,15.7191,Hotel Gran Paradiso
316,Baoshan,CN,64.83,scattered clouds,46.5586,131.4244,Kelaixiang Restaurant
317,Erenhot,CN,76.69,clear sky,43.6475,111.9767,Erenhot Rurouni Youth Hostel
318,Columbus,US,72.43,clear sky,39.9612,-82.9988,DoubleTree Suites by Hilton Hotel Columbus Downtown
320,Lompoc,US,61.57,mist,34.6391,-120.4579,"Holiday Inn Express Lompoc, an IHG Hotel"
322,Slave Lake,CA,64.38,broken clouds,55.2834,-114.76899999999999,Super 8 by Wyndham Slave Lake AB
323,Tupik,RU,72.01,clear sky,54.4253,119.9327,Guest House Orkhideya
324,Kathu,TH,83.7,moderate rain,7.9178,98.3332,Novotel Phuket Resort
325,Telica,NI,79.93,broken clouds,12.522,-86.8594,Residencias Telica
326,Hornepayne,CA,60.37,overcast clouds,49.2138,-84.7705,Jackfish River Inn
327,Naze,JP,70.72,light rain,28.3667,129.4833,奄美ポートタワーホテル
328,Bonavista,CA,55.4,overcast clouds,48.6499,-53.1147,Abbott's Bed & Breakfast
329,Marsh Harbour,BS,78.17,broken clouds,26.5412,-77.0636,Abaco Beach Resort
330,Porto Novo,BJ,75.02,overcast clouds,6.4965,2.6036,Tour Eiffel Hotel Benin
332,Cayenne,GF,78.1,clear sky,4.9333,-52.3333,Hôtel Le Dronmi
333,Asau,RO,54.75,broken clouds,46.4333,26.4,Casa Mika Ciobanus
334,Sokoni,TZ,79.09,broken clouds,-6.4333,39.55,Ujamaa Beach Resort
335,Belyy Yar,RU,57.09,moderate rain,53.6039,91.3903,Pasportnyy Stol
336,Corinto,GR,68.68,clear sky,37.9407,22.9573,Ephira Hotel
337,Wakkanai,JP,64.38,broken clouds,45.4094,141.6739,Hyōsetsu-sō
339,Haicheng,CN,76.98,scattered clouds,40.8516,122.7475,Haicheng Grand Hotel
340,Fredericksburg,US,73.38,mist,38.3032,-77.4605,Courtyard by Marriott Fredericksburg Historic District
341,Hamilton,US,71.35,clear sky,39.1834,-84.5333,Six Acres Bed & Breakfast
343,Bentiu,SS,75.56,broken clouds,9.2333,29.8333,Mandela hôtel
345,Lata,PT,55.72,few clouds,40.1629,-8.3327,Casa Maquia
346,Mkushi,ZM,51.93,clear sky,-13.6202,29.3939,Mkushi Police Club
347,Iracoubo,GF,77.22,light rain,5.4802,-53.2011,Le Gite D Iracoubo
348,Itarema,BR,77.25,clear sky,-2.9248,-39.9167,"Sea Lounge! Bar, Club & Restaurant"
349,Savonlinna,FI,59.05,clear sky,61.8699,28.88,Spahotel Casino
350,Marystown,CA,52.86,overcast clouds,47.1666,-55.1483,Marystown Hotel & Convention Centre
351,Lincoln,US,82.47,few clouds,40.8,-96.667,Courtyard by Marriott Lincoln Downtown/Haymarket
352,Ajdabiya,LY,67.26,clear sky,30.7554,20.2263,Almadina Hotel
353,Raudeberg,NO,56.19,overcast clouds,61.9875,5.1352,Nordre Silda.
354,Jasper,US,71.04,clear sky,37.2001,-94.3502,Guest House Motel
355,Wailuku,US,81.55,few clouds,20.8911,-156.5047,Maui Beach Hotel
356,Hammond,US,80.8,clear sky,41.5834,-87.5,"Residence Inn by Marriott Chicago Southeast/Hammond, IN"
358,Chama,CH,63.05,fog,47.1821,8.4636,City Garden Hotel
359,Chambersburg,US,71.04,clear sky,39.9376,-77.6611,"Holiday Inn Express & Suites Chambersburg, an IHG Hotel"
361,Abu Samrah,SY,65.66,clear sky,35.3029,37.1841,
362,Abnub,EG,68.22,clear sky,27.2696,31.1511,Romany Adly Gad
363,Vila Velha,BR,69.94,broken clouds,-20.3297,-40.2925,Quality Suites Vila Velha
365,Vizinga,RU,69.82,few clouds,61.0749,50.1031,"Gostinitsa ""Nadezhda"""
366,Duncan,US,72.05,clear sky,34.5023,-97.9578,Days Inn by Wyndham Duncan
368,Yerbogachen,RU,55.76,overcast clouds,61.2767,108.0108,
369,Selenginsk,RU,75.61,few clouds,52.0064,106.8647,Selenga
370,Malindi,KE,78.96,light rain,-3.2175,40.1191,African House Resort
371,Kargasok,RU,55.35,few clouds,59.0556,80.8572,Hotel Kargasok
373,Zyryanka,RU,75.07,scattered clouds,65.75,150.85,
374,Krasnyy Chikoy,RU,79.79,clear sky,50.3643,108.7512,Persona
377,Sheltozero,RU,56.48,clear sky,61.3667,35.3667,The village of Vanino
379,Villa Carlos Paz,AR,62.38,overcast clouds,-31.4241,-64.4978,Monte Carlo
381,Troitsko-Pechorsk,RU,72.72,broken clouds,62.7084,56.1964,Pechora Gostinitsa
382,Khani,GE,51.37,clear sky,41.9563,42.9566,კურორტი ზეკარი/Resort Zekari
384,Makakilo City,US,82.72,scattered clouds,21.3469,-158.0858,Marriott's Ko Olina Beach Club
385,Hasaki,JP,77.29,broken clouds,35.7333,140.8333,Hotel Sunrise Choshi
386,Carson City,US,84.74,clear sky,39.1638,-119.7674,Courtyard by Marriott Carson City
387,Sibolga,ID,77.65,overcast clouds,1.7427,98.7792,Hotel Syariah CN Darussalam
388,Sao Filipe,CV,73.36,scattered clouds,14.8961,-24.4956,Hotel Xaguate
389,Hirara,JP,80.46,heavy intensity rain,24.8,125.2833,Hotel Atoll Emerald Miyakojima
390,Tarko-Sale,RU,52.0,overcast clouds,64.9225,77.785,Yubileynaya
393,Birao,CF,78.21,overcast clouds,10.2849,22.7882,
397,Pincher Creek,CA,71.29,clear sky,49.4833,-113.95200000000001,BLUE MOUNTAIN MOTEL
398,Kabinda,CD,70.45,broken clouds,-6.1333,24.4833,Village Mianda Mutole
400,Emerald,AU,69.94,clear sky,-23.5333,148.1667,The Irish Village
402,Shingu,JP,76.19,overcast clouds,33.7333,135.9833,Shingu UI Hotel
405,Tura,IN,83.41,few clouds,25.5198,90.2201,Hotel RIKMAN Continental
406,Odweyne,SO,72.41,scattered clouds,9.4092,45.06399999999999,Eng Hiirey House
407,Mount Isa,AU,71.37,broken clouds,-20.7333,139.5,ibis Styles Mt Isa Verona
409,Kavaratti,IN,82.6,overcast clouds,10.5669,72.642,Hotels in Lakshadweep Islands
410,Khorinsk,RU,78.8,clear sky,52.1657,109.7726,Uda
411,Kaputa,ZM,67.93,broken clouds,-8.4689,29.6619,Chelelwa Charlets
413,Komsomolskiy,UZ,84.92,clear sky,40.4272,71.7189,Ikathouse
414,Paranagua,BR,72.77,scattered clouds,-25.52,-48.5092,Hotel Camboa Paranaguá
416,Paita,PE,67.73,broken clouds,-5.0892,-81.1144,Hotel Náutico de Paita
418,Praia,CV,75.74,scattered clouds,14.9215,-23.5087,LT Aparthotel
420,Ucluelet,CA,53.1,overcast clouds,48.9329,-125.5528,Black Rock Oceanfront Resort
423,Bar Harbor,US,64.67,clear sky,44.3876,-68.2039,Atlantic Oceanside Hotel & Event Center
424,Rincon,US,78.85,scattered clouds,32.296,-81.2354,Days Inn Rincon
425,Ostrovnoy,RU,51.96,broken clouds,68.0531,39.5131,
428,Kibala,TD,75.29,overcast clouds,9.1104,18.3463,hotel safari
429,Coari,BR,75.16,broken clouds,-4.085,-63.1414,HOTEL ALEX FLAT
430,Aquiraz,BR,81.18,clear sky,-3.9014,-38.3911,Pousada Rua Camurupim
431,Kaitangata,NZ,55.92,overcast clouds,-46.2817,169.8464,Kaitangata Motor Camp
432,Shitanjing,CN,81.05,clear sky,39.2342,106.3439,
433,Strezhevoy,RU,57.18,scattered clouds,60.7333,77.5889,Sibiryachka
434,Binga,ZW,52.34,clear sky,-17.6203,27.3414,Lakeview Inn Binga
435,Biloela,AU,72.1,clear sky,-24.4167,150.5,Silo Motor Inn
437,Palmer,US,66.61,clear sky,42.1584,-72.3287,Wedgewood Motel
439,Havre-Saint-Pierre,CA,50.0,clear sky,50.2334,-63.5986,Auberge Niapiskau
440,Los Llanos De Aridane,ES,64.15,broken clouds,28.6585,-17.9182,Valle Aridane
441,Paris,FR,59.58,mist,48.8534,2.3488,Hôtel Britannique - Paris Centre
443,Santa Maria Del Oro,MX,73.31,broken clouds,25.9333,-105.3667,Hotel Palacio Del Sol
444,Umm Lajj,SA,81.03,clear sky,25.0213,37.2685,Moon light Furnished Units
445,Areosa,PT,57.24,clear sky,41.7178,-8.8571,Hotel Flôr de Sal
446,Sechura,PE,68.11,broken clouds,-5.5569,-80.8222,Hospedaje Costa Bella
447,Road Town,VG,79.2,overcast clouds,18.4167,-64.6167,"ZINGARA 76ft Catamaran, full crew-all included"
448,Priiskovyy,RU,73.54,clear sky,51.9333,116.6333,
449,Ponta Delgada,PT,63.32,scattered clouds,37.7333,-25.6667,Vila Nova Hotel
450,Warrnambool,AU,55.81,moderate rain,-38.3833,142.4833,Lady Bay Resort
452,Salamanca,ES,50.99,scattered clouds,40.8333,-6.0,Palacio Carrascalino
453,Saint-Felicien,CA,59.5,scattered clouds,48.6501,-72.4491,Hôtel du Jardin
454,Waipawa,NZ,55.45,overcast clouds,-41.4122,175.5153,Tora Coastal Walk
455,Pimenta Bueno,BR,70.5,overcast clouds,-11.6725,-61.1936,Cristalina Palace Hotel
456,Ust-Tsilma,RU,68.02,scattered clouds,65.441,52.1498,U Praskov'i
458,Vadu Pasii,RO,59.13,overcast clouds,45.1667,26.9,Romania
459,Decatur,US,73.45,clear sky,39.8403,-88.9548,Haworth Cottage
460,Santa Maria,BR,74.5,clear sky,-29.6842,-53.8069,Hotel Morotin
461,Lielvarde,LV,58.59,overcast clouds,56.7207,24.8074,Baltu Ozols
462,La Palma,US,75.42,overcast clouds,33.8464,-118.0467,La Quinta Inn & Suites by Wyndham Buena Park
463,Saint-Pierre,RE,72.57,clear sky,-21.3393,55.4781,Lindsey Hôtel
465,Lubango,AO,52.05,clear sky,-14.9172,13.4925,Hotel Serra da Chela
466,Kutum,SD,74.03,overcast clouds,14.2,24.6667,Dibbo areaمنطقة دبو
467,Pilot Butte,CA,76.62,few clouds,50.4668,-104.4178,Sleep Inn Regina East
468,Altamont,US,75.04,clear sky,42.2068,-121.7372,Microtel Inn & Suites by Wyndham Klamath Falls
469,Bonthe,SL,79.59,light rain,7.5264,-12.505,Bonthe Holiday Village
470,Berdigestyakh,RU,82.76,scattered clouds,62.0989,126.6992,
472,Linxia,CN,79.34,clear sky,35.6003,103.2064,GreenTree Inn Linxia Autonomous Prefecture Linxia Oxford River Avenue Express Hotel
473,Port Macquarie,AU,65.89,clear sky,-31.4333,152.9167,Rydges Port Macquarie
474,Rocha,UY,64.11,overcast clouds,-34.4833,-54.3333,Beleza Pura B&B
475,Mayo,US,73.35,clear sky,38.8876,-76.5119,Resorts Resource Group International
476,Almenara,BR,67.93,overcast clouds,-16.1836,-40.6944,Pousada Estância
477,Kumla,SE,60.67,clear sky,59.1277,15.1434,Kumla Hotel
478,Port Lincoln,AU,64.56,overcast clouds,-34.7333,135.8667,Port Lincoln Hotel
479,Okahandja,NA,50.31,clear sky,-21.9833,16.9167,Guesthouse Villa Nina
480,Tirau,NZ,59.07,overcast clouds,-37.9833,175.75,A1 Troutfishing at Tirau
481,Merritt,CA,60.46,overcast clouds,50.1123,-120.7942,Ramada Limited Merritt
482,Fort Nelson,CA,67.59,broken clouds,58.8053,-122.7002,The Fort Nelson Hotel
483,Gualan,GT,75.56,broken clouds,15.1333,-89.3667,Hotel Agua Viva
484,Oussouye,SN,78.98,few clouds,12.485,-16.5469,Auberge du Routard
485,Minot,US,80.82,clear sky,48.2325,-101.2963,Noble Inn
488,Thinadhoo,MV,82.63,overcast clouds,0.5333,72.9333,
489,Thompson,CA,50.16,overcast clouds,55.7435,-97.8558,Burntwood Hotel
490,Rawah,IQ,82.81,clear sky,34.4816,41.9093,ديوان الشيخ نامق محسن الراوي
491,Trairi,BR,77.36,clear sky,-3.2778,-39.2689,janelas do mar
493,Topolobampo,MX,82.31,clear sky,25.6,-109.05,Hotel Marina Topolobampo
494,Buchanan,LR,77.99,overcast clouds,5.8808,-10.0467,Kamaneahn Hotel Inc
495,Tiarei,PF,82.42,few clouds,-17.5333,-149.3333,Le Rocher de Tahiti
496,Aksha,RU,76.86,clear sky,50.2814,113.2867,
497,Matagami,CA,57.31,moderate rain,49.7502,-77.6328,Hôtel Matagami
498,Tapolca,HU,55.54,broken clouds,46.8815,17.4412,Hunguest Hotel Pelion
499,Marawi,PH,81.64,overcast clouds,7.9986,124.2928,Derogongan Residence
500,Santa Barbara,US,54.82,clear sky,34.7333,-120.0343,Upper Ballard Campground
501,San Andres,CO,82.42,scattered clouds,12.5847,-81.7006,Hotel Arena Blanca
502,Huanren,CN,67.23,overcast clouds,41.2647,125.3667,Dynasty Wunvshan Ice Chateau
504,Ilabaya,PE,63.32,scattered clouds,-17.4208,-70.5133,
505,Talavera De La Reina,ES,61.56,broken clouds,39.9635,-4.8308,Be Live City Center Talavera
506,General Roca,AR,52.2,few clouds,-39.0333,-67.5833,Hotel y Casino del Río General Roca
507,Camden,US,70.21,clear sky,39.7835,-74.9663,Days Inn by Wyndham Berlin Voorhees
508,Mainburg,DE,61.18,light rain,48.65,11.7833,Heimat Mainburg | Hotel • Café • Weinbar
509,Cordoba,AR,65.75,broken clouds,-31.4135,-64.1811,Hotel Sussex
510,Stornoway,GB,54.93,broken clouds,58.2093,-6.3865,Caladh Inn
511,Macklin,CA,76.33,scattered clouds,52.3334,-109.9348,Macklin Motor Inn
512,Boma,GH,72.01,scattered clouds,7.0805,-2.1697,Obaatanpa Hotel
513,Chontalpa,MX,78.31,broken clouds,17.7,-93.5167,
514,Caravelas,BR,72.36,broken clouds,-17.7125,-39.2481,Pousada dos Navegantes
515,Takoradi,GH,78.51,light rain,4.8845,-1.7554,Raybow International Hotel
517,Sulina,RO,61.18,broken clouds,45.1559,29.6536,Hotel Delta Est
518,Olinda,BR,73.13,scattered clouds,-8.0089,-34.8553,Hotel Albergue de Olinda
519,Lodja,CD,70.36,scattered clouds,-3.4833,23.4333,
520,Tarnos,FR,57.81,broken clouds,43.5417,-1.4628,"The Originals City, Hôtel Le Lodge, Bayonne Nord (Inter-Hotel)"
521,Kontagora,NG,71.44,few clouds,10.3999,5.4695,Queens Guest Inn
522,Ust-Koksa,RU,52.54,broken clouds,50.2696,85.6108,Uymonskaya Dolina
524,Zhanaozen,KZ,75.9,clear sky,43.3,52.8,K.korabay 28A
525,Dunedin,NZ,57.79,overcast clouds,-45.8742,170.5036,Scenic Hotel Southern Cross
526,Costinesti,RO,61.72,broken clouds,43.95,28.6333,Villa Mar Bella
527,Contamana,PE,71.91,broken clouds,-7.3333,-75.0167,Shiringal Touristic Park
529,Puerto Leguizamo,CO,69.91,broken clouds,-0.1934,-74.7819,la casona de juancho
530,Namioka,JP,75.9,scattered clouds,40.7072,140.5894,Restaurant & INN Sunrise
531,Portland,US,71.55,broken clouds,45.5234,-122.6762,Embassy Suites by Hilton Portland Downtown
532,Pervomayskoye,RU,66.76,broken clouds,43.919,46.7102,
533,Srednekolymsk,RU,76.87,overcast clouds,67.45,153.6833,
534,Price,US,83.46,clear sky,39.5994,-110.8107,National 9 - Price River Inn
535,Santa Cruz De La Palma,ES,68.14,broken clouds,28.6835,-17.7642,H10 Taburiente Playa
537,Maridi,SS,65.46,light rain,4.9158,29.4742,
538,Lasa,IT,54.34,broken clouds,46.6166,10.7002,Pension Feldgärtenhof
539,Thai Binh,VN,84.2,broken clouds,20.45,106.3333,Sweden Hotel
540,Ulaanbaatar,MN,75.33,few clouds,47.9077,106.8832,The Blue Sky Hotel and Tower
541,Gat,IL,66.07,clear sky,31.61,34.7642,OlusHome
542,Dryden,CA,79.09,few clouds,49.7833,-92.7503,"Holiday Inn Express Dryden, an IHG Hotel"
543,Nouakchott,MR,82.33,few clouds,18.0858,-15.9785,HOTEL IMAN فندق إيمان
545,Young,UY,67.23,overcast clouds,-32.6833,-57.6333,Posada Gira el Sol
546,Nelson Bay,AU,63.77,few clouds,-32.7167,152.15,Mantra Nelson Bay
547,Naerbo,NO,56.98,overcast clouds,58.6667,5.65,Stolpabua
548,Tarragona,ES,66.25,few clouds,41.129,1.249,Hotel SB Ciutat de Tarragona
552,Cap Malheureux,MU,74.46,few clouds,-19.9842,57.6142,Pereybere Hotel & Spa
553,Urumqi,CN,79.75,few clouds,43.801,87.6005,Hua Ling Grand Hotel Urumqi
554,Campos Belos,BR,68.11,clear sky,-13.0367,-46.7717,Pousada Carnaúba
558,Afsin,TR,54.54,clear sky,38.2477,36.914,Afsin Ogretmenevi ASO
560,Barranca,PE,62.6,scattered clouds,-10.75,-77.7667,El Olivar Hospedaje
562,Buzmeyin,TM,82.13,scattered clouds,38.0507,58.2056,
563,Kismayo,SO,79.02,few clouds,-0.3582,42.5454,Agan-Hotel
564,Maniwaki,CA,64.94,overcast clouds,46.3834,-75.96600000000001,Centre Chateau Logue
565,Chara,RU,75.13,clear sky,56.9064,118.2631,
567,Acapulco,MX,82.94,overcast clouds,16.8634,-99.8901,HS Hotsson Smart Acapulco
569,Kano,NG,78.69,clear sky,12.0001,8.5167,Havana Guest Inn
570,Guasdualito,VE,73.71,light rain,7.2424,-70.7324,Hotel Cuibas
571,Yeppoon,AU,73.18,clear sky,-23.1333,150.7333,Villa Mar Colina
572,Natal,BR,75.42,few clouds,-5.795,-35.2094,Villa Park Hotel | Natal
573,Corn Island,NI,82.15,scattered clouds,12.1694,-83.0418,Big Fish Guest House
574,Luganville,VU,79.79,overcast clouds,-15.5333,167.1667,The Espiritu Hotel
575,Lakatoro,VU,79.39,overcast clouds,-16.0999,167.4164,Lakatoro Palm Lodge
576,Tiznit,MA,57.88,scattered clouds,29.5833,-9.5,
577,Dunkwa,GH,72.91,broken clouds,5.9656,-1.78,Tim Freeman Gold City Hotel
578,Port Shepstone,ZA,55.92,clear sky,-30.7414,30.455,My Den Beachfront Bed and Breakfast | Self-Catering
579,Itabuna,BR,68.34,overcast clouds,-14.7856,-39.2803,Tarik Fontes Plaza Hotel Itabuna
582,Dire Dawa,ET,72.16,clear sky,9.5931,41.8661,Samrat Hotel
583,Bundaberg,AU,70.09,clear sky,-24.85,152.35,Takalvan Motel
585,Conceicao Das Alagoas,BR,67.71,clear sky,-19.9147,-48.3883,Bouganville Hotel
586,Samarai,PG,76.86,overcast clouds,-10.6167,150.6667,Nuli Sapi
587,Bulaevo,KZ,54.77,clear sky,54.9056,70.4439,"Игровой клуб ""ДОМ ИГР Z"""
588,Ahtopol,BG,55.87,clear sky,42.1,27.95,Agata Beach Hotel
589,Jilib,SO,75.33,clear sky,0.4883,42.7854,
590,Northam,GB,53.02,clear sky,51.0333,-4.2167,Durrant House Hotel
591,Manaure,CO,80.46,overcast clouds,11.7751,-72.4445,Hotel Palaaima
592,Celestun,MX,83.3,overcast clouds,20.8667,-90.4,Posada Lilia
593,Mocuba,MZ,63.97,overcast clouds,-16.8392,36.9856,Phama Lodge
596,Pauini,BR,73.45,overcast clouds,-7.7136,-66.9764,Casa do Kiwliks
598,Chapais,CA,56.98,overcast clouds,49.7834,-74.8492,Hôtel Opémiska
600,Sembe,CG,70.21,overcast clouds,1.6481,14.5806,
601,Clinton,US,79.05,clear sky,42.586999999999996,-82.9199,Hampton Inn Detroit/Roseville
602,Saint-Francois,FR,58.48,overcast clouds,46.4154,3.9054,Manoir Du Bonheur
604,Arkhara,RU,52.61,light rain,49.4212,130.0842,"Gostinitsa ""Arkhara"""
605,Bagdarin,RU,77.22,few clouds,54.4333,113.6,Gostevoy Dom Terem
606,Oistins,BB,80.69,few clouds,13.0667,-59.5333,Butterfly Beach Hotel
607,North Bend,US,57.15,clear sky,43.4065,-124.2243,Red Lion Hotel Coos Bay
609,Gamba,GA,74.93,broken clouds,-2.65,10.0,
610,Amelia,IT,64.92,overcast clouds,42.5523,12.4182,Ristorante Scoglio Dell'Aquilone Srl
612,Tibati,CM,64.87,overcast clouds,6.4667,12.6333,Tibati Hotel
613,Champerico,GT,84.34,overcast clouds,14.3,-91.9167,"Hotel y restaurante ""El Diamante"""
614,Dingle,PH,84.96,overcast clouds,10.9995,122.6711,SEGAYA PROPERTY
615,Samdrup Jongkhar,BT,75.58,light rain,26.9167,91.6167,
616,Inongo,CD,69.96,broken clouds,-1.95,18.2667,Hotel Du Lac
617,Beian,NO,58.68,broken clouds,63.6559,9.5683,"Fjord-Fishing AS, Property & Housing Co."
618,Dondo,MZ,60.31,clear sky,-19.6094,34.7431,Arco Iris
619,Cefalu,IT,71.91,broken clouds,38.0386,14.0229,Hotel La Giara
620,Hobyo,SO,78.93,clear sky,5.3505,48.5268,Halane Hotel and Restaurent
621,Matara,LK,79.63,moderate rain,5.9485,80.5353,Amaloh Boutique Resort
622,Gizo,SB,83.07,light rain,-8.103,156.8419,Imagination Island
624,Kiunga,PG,73.45,heavy intensity rain,-6.1219,141.2906,Airport Lodge Kiunga
625,Belmonte,BR,73.9,overcast clouds,-15.8631,-38.8828,Pousada Monte Carmelo O Pão
626,Neuquen,AR,51.69,clear sky,-38.9516,-68.0591,Hotel del Comahue
627,Vostok,RU,58.37,overcast clouds,46.4856,135.8833,
628,Deception Bay,AU,73.09,clear sky,-27.2,153.0333,Hamptons at The Bay
629,Sao Felix Do Xingu,BR,74.66,scattered clouds,-6.6447,-51.995,Rio Xingu Camping
630,Liverpool,GB,52.63,clear sky,53.4106,-2.9779,Premier Inn Liverpool City Centre (Moorfields) hotel
632,Luban,PL,65.77,broken clouds,51.1201,15.2877,Motel Łużycki
634,Amapa,BR,71.38,overcast clouds,1.0,-52.0,
636,Maceio,BR,71.04,scattered clouds,-9.6658,-35.7353,Poutur Pousada
637,Gilbues,BR,70.52,few clouds,-9.8317,-45.3439,Hotel Camapuã
639,Sokoto,NG,82.67,clear sky,13.0609,5.239,Shukura Coral Hotel
640,Abong Mbang,CM,66.81,moderate rain,3.9833,13.1833,Auberge Angle Sur
641,Mbeya,TZ,55.31,scattered clouds,-8.9,33.45,Leda Lodge
644,Alofi,NU,76.89,overcast clouds,-19.0595,-169.9187,Taloa Heights
646,Tobe,JP,70.68,broken clouds,33.7447,132.7901,青年の家
647,Hadejia,NG,82.78,overcast clouds,12.4498,10.0444,Kasuwar Kuda Hadejia General Hospital Road
648,Galveston,US,75.96,clear sky,29.3669,-94.9669,Comfort Inn & Suites Texas City
651,Mitsamiouli,KM,78.66,clear sky,-11.3847,43.2844,Foyer ADM
652,Dolinsk,RU,62.46,few clouds,47.35,142.8,"Gostinitsa ""Yubileynaya"""
653,Kologriv,RU,62.82,clear sky,58.8275,44.3178,Postoyalyy Dvor
654,Uvalde,US,71.53,clear sky,29.3669,-99.76700000000001,
656,Saint-Honore,CA,62.62,overcast clouds,48.5334,-71.0824,Camping Plage Margot
657,Paranaiba,BR,71.13,scattered clouds,-19.6772,-51.1908,Villa Rica Park Hotel GMR
658,Buin,CL,61.74,overcast clouds,-33.7333,-70.75,Paihuen
659,Antalaha,MG,70.45,clear sky,-14.9003,50.2788,Hotel Vitasoa
660,The Valley,AI,80.46,overcast clouds,18.217,-63.0578,CeBlue Villas & Beach Resort
661,Itoigawa,JP,82.62,overcast clouds,37.0333,137.85,Hotel Route Inn Itoigawa
663,Lachute,CA,69.51,scattered clouds,45.6501,-74.3325,Hotel Laurentien
665,Doka,SD,81.1,broken clouds,13.5167,35.7667,
666,Sukumo,JP,71.56,overcast clouds,32.9333,132.7333,Sukumojo
668,Gimli,CA,71.62,scattered clouds,50.6336,-96.9907,Lakeview Gimli Resort
669,Santa Isabel,BR,69.66,clear sky,-23.3156,-46.2214,Chácara Sombra do Altíssimo
670,Madarounfa,NE,81.99,clear sky,13.3087,7.156000000000001,Madarounfa centre ville
671,Muroto,JP,71.64,overcast clouds,33.2833,134.15,Oota Ryokan
672,Viesca,MX,80.96,clear sky,25.35,-102.8,LA VIEZCA (Parque Magico)
673,Surgut,RU,62.78,scattered clouds,61.25,73.4167,Business Hotel
674,Marzuq,YE,79.25,clear sky,14.4,46.4667,
676,Bud,US,73.38,scattered clouds,39.446999999999996,-86.1758,Ted McQuinn Trust
677,Kalmunai,LK,84.09,overcast clouds,7.4167,81.8167,VS Villa
678,Leh,IN,52.43,overcast clouds,34.1667,77.5833,Hotel Ladakh Greens
679,Kysyl-Syr,RU,71.98,overcast clouds,63.8986,122.7617,
680,Mabaruma,GY,73.58,broken clouds,8.2,-59.7833,Monty Brooms Guest House
682,Voyvozh,RU,70.48,overcast clouds,62.891999999999996,54.9635,Gostinitsa Yakor'
683,Kagadi,UG,60.22,overcast clouds,0.9606,30.7967,ADNEC MOTEL
684,Polovinnoye,RU,56.91,clear sky,54.7914,65.9864,
685,Kaberamaido,UG,64.67,broken clouds,1.7389,33.1594,"Little Orchard, Kaberamaido"
686,Illapel,CL,57.02,broken clouds,-31.6308,-71.1653,Hotel Londres
687,Hailar,CN,67.39,broken clouds,49.2,119.7,Holiday Inn & Suites Hulunbuir
688,Kez,RU,62.47,clear sky,57.8979,53.7152,Gostinitsa Uyut Kez
691,Half Moon Bay,US,66.45,overcast clouds,37.4636,-122.4286,"The Ritz-Carlton, Half Moon Bay"
692,Utinga,BR,75.6,clear sky,-5.8172,-35.3954,Espaço de Lazer Érica Fernandes
693,Evans,US,79.0,clear sky,33.5337,-82.1307,Donald J Kosatka
694,Daru,PG,81.12,overcast clouds,-9.0763,143.2092,Daru Lodge
695,Sola,VU,84.87,overcast clouds,-13.8833,167.55,Leumerus Bungalows
696,Carballo,ES,52.75,clear sky,43.213,-8.691,Pazo do Souto
697,Seybaplaya,MX,83.43,overcast clouds,19.65,-90.6667,sala de fiesta san Rafael
698,Misratah,LY,69.06,scattered clouds,32.3754,15.0925,فندق الماسة
699,La Ligua,CL,55.6,broken clouds,-32.4524,-71.2311,Hotel Anchimallen
